City_ID,City,Country,Max Temp,Current Description,Lat,Lng,Hotel Name
0,Port Alfred,ZA,68.54,light rain,-33.5906,26.891,The Halyards Hotel
10,Bima,ID,76.59,overcast clouds,-8.4667,118.7167,Lambitu Hotel
11,Hithadhoo,MV,81.54,broken clouds,-0.6,73.0833,Scoop Guest House
13,Sharjah,AE,70.25,clear sky,25.3573,55.4033,Swiss Belhotel Sharjah
17,Mufumbwe,ZM,63.32,overcast clouds,-13.6833,24.8,
18,Atuona,PF,78.76,light rain,-9.8,-139.0333,Villa Enata
19,Caravelas,BR,77.0,overcast clouds,-17.7125,-39.2481,Pousada dos Navegantes
20,Rikitea,PF,78.44,light rain,-23.1203,-134.9692,People ThankYou
23,Busselton,AU,65.08,clear sky,-33.65,115.3333,Observatory Guest House
25,Carmen,MX,78.84,mist,18.6333,-91.8333,Hotel Lossandes
27,Qandala,SO,74.48,clear sky,11.472,49.8728,
29,Hualmay,PE,73.74,few clouds,-11.0964,-77.6139,Hotel Villa Kitzia Huacho
32,Sao Joao Da Barra,BR,76.6,scattered clouds,-21.6403,-41.0511,Pousada Porto De Canoas
36,Bengkulu,ID,73.02,light rain,-3.8004,102.2655,Grage Hotel Bengkulu
37,Mahebourg,MU,79.25,broken clouds,-20.4081,57.7,Shandrani Beachcomber Resort & Spa
43,Bredasdorp,ZA,65.52,few clouds,-34.5322,20.0403,Bredasdorp Country Manor
47,Dabakala,CI,79.83,clear sky,8.3667,-4.4333,Hôtel Campement
48,Ponta Do Sol,PT,65.71,overcast clouds,32.6667,-17.1,Hotel do Campo
49,Mar Del Plata,AR,70.09,moderate rain,-38.0023,-57.5575,Gran Hotel Mar del Plata
50,Kruisfontein,ZA,63.88,overcast clouds,-34.0033,24.7314,Oyster Bay House Rental
51,Hermanus,ZA,63.81,clear sky,-34.4187,19.2345,Misty Waves Boutique Hotel
53,Catuday,PH,75.43,scattered clouds,16.2923,119.8062,Benjie's Kubo & Cottages
54,Port Blair,IN,75.24,mist,11.6667,92.75,"Welcomhotel By ITC Hotels, Bay Island, Port Blair"
56,Cidreira,BR,72.09,overcast clouds,-30.1811,-50.2056,Hotel Castelo
57,New Norfolk,AU,64.65,scattered clouds,-42.7826,147.0587,The Shingles Riverside Cottages
58,Bowen,AU,79.02,overcast clouds,-20.0167,148.2333,Castle Motor Lodge Motel
59,Avarua,CK,84.25,few clouds,-21.2078,-159.775,Paradise Inn
60,Kavaratti,IN,78.12,overcast clouds,10.5669,72.642,Hotels in Lakshadweep Islands
61,Butaritari,KI,82.51,light rain,3.0707,172.7902,Isles Sunset Lodge
62,Fortuna,US,61.41,clear sky,40.5982,-124.1573,Super 8 by Wyndham Fortuna
65,Hobart,AU,64.26,broken clouds,-42.8794,147.3294,Mantra on Collins Hobart
66,Sao Jose Da Coroa Grande,BR,79.63,scattered clouds,-8.8978,-35.1478,Crôa Mares Hotel
67,Kapaa,US,80.11,clear sky,22.0752,-159.319,Sheraton Kauai Coconut Beach Resort
69,Arraial Do Cabo,BR,76.96,scattered clouds,-22.9661,-42.0278,Pousada Porto Praia
70,Saint-Philippe,RE,80.15,moderate rain,-21.3585,55.7679,"Chambres d'hôte ""La Trinité"""
73,Flinders,AU,70.38,overcast clouds,-34.5833,150.8552,Shellharbour Resort & Conference Centre
74,Castro,BR,67.59,overcast clouds,-24.7911,-50.0119,CHACARA BAILLY
81,Tiznit,MA,63.28,overcast clouds,29.5833,-9.5,
83,Chuy,UY,73.67,few clouds,-33.6971,-53.4616,Nuevo Hotel Plaza
85,Progreso,MX,84.31,clear sky,21.2833,-89.6667,Playa Linda Hotel
86,Lebu,CL,61.5,clear sky,-37.6167,-73.65,Hostal Las Lilas
87,Denpasar,ID,80.26,scattered clouds,-8.65,115.2167,ASTON Denpasar Hotel & Convention Center
88,Port Elizabeth,ZA,66.49,broken clouds,-33.918,25.5701,39 On Nile Guest House
90,Karratha,AU,84.04,overcast clouds,-20.7377,116.8463,ibis Styles Karratha
92,Puerto Ayora,EC,82.36,broken clouds,-0.7393,-90.3518,Finch Bay Galapagos Hotel
93,Nouadhibou,MR,69.78,clear sky,20.931,-17.0347,El Medina
94,Souillac,MU,79.36,light rain,-20.5167,57.5167,Shanti Maurice Resort & Spa
95,Fare,PF,80.44,broken clouds,-16.7,-151.0167,Maitai Lapita Village Huahine
96,Cape Town,ZA,65.88,clear sky,-33.9258,18.4232,Southern Sun Waterfront Cape Town
99,Champerico,GT,93.74,clear sky,14.3,-91.9167,"Hotel y restaurante ""El Diamante"""
102,Huarmey,PE,74.77,few clouds,-10.0681,-78.1522,Hotel Miramar
103,Neiafu,TO,80.55,light rain,-18.65,-173.9833,Mystic Sands Beachfront Accommodation
104,Esperance,AU,62.44,clear sky,-33.8667,121.9,Hospitality Esperance
105,East London,ZA,68.83,light rain,-33.0153,27.9116,Tu Casa
107,Faanui,PF,80.62,scattered clouds,-16.4833,-151.75,Bora-Bora Pearl Beach Resort & Spa
108,Tautira,PF,82.42,light rain,-17.7333,-149.15,Pension Oaoa
109,Whitianga,NZ,79.02,scattered clouds,-36.8333,175.7,Beachside Resort Whitianga
112,Lorengau,PG,82.09,broken clouds,-2.0226,147.2712,Lorengau Harbourside Hotel
115,Bathsheba,BB,79.41,scattered clouds,13.2167,-59.5167,Atlantis Hotel
120,Georgetown,MY,78.89,scattered clouds,5.4112,100.3354,Cititel Penang
124,Najran,SA,66.85,clear sky,17.4924,44.1277,محمد هادي ال فطيح
125,Kahului,US,85.26,few clouds,20.8947,-156.47,Maui Seaside Hotel
126,Balabac,PH,79.79,moderate rain,7.9868,117.0645,Sing and Swing Lodge
127,Salinopolis,BR,78.78,moderate rain,-0.6136,-47.3561,Salinas Park Resort Maçarico AP101
128,Hilo,US,79.61,overcast clouds,19.7297,-155.09,Hilo Hawaiian Hotel
130,Meulaboh,ID,75.47,overcast clouds,4.1363,96.1285,Kost Pria
132,Bethlehem,BR,77.04,moderate rain,-1.4558,-48.5044,Mercure Belém Boulevard
134,Lethem,GY,83.7,broken clouds,3.3803,-59.7968,Savannah Inn
136,Alice Springs,AU,60.35,clear sky,-23.7,133.8833,Desert Palms Alice Springs
139,Vaini,TO,78.89,moderate rain,-21.2,-175.2,Keleti Beach Resort
142,Oriximina,BR,77.04,overcast clouds,-1.7656,-55.8661,Pousada Tia Amélia
149,Richards Bay,ZA,71.87,heavy intensity rain,-28.783,32.0377,BON Hotel Waterfront Richards Bay
151,Namatanai,PG,83.8,overcast clouds,-3.6667,152.4333,Seagulls Inn Namatani
153,Adrar,MR,66.54,scattered clouds,20.5022,-10.0711,
154,Coihaique,CL,75.15,few clouds,-45.5752,-72.0662,Diego De Almagro Coyhaique
155,Coquimbo,CL,67.73,clear sky,-29.9533,-71.3436,Hostel Del Puerto
156,Mount Gambier,AU,60.71,overcast clouds,-37.8333,140.7667,The Commodore
158,Soeng Sang,TH,64.31,few clouds,14.4264,102.4606,ปาณิสรา รีสอร์ท
160,Vila Franca Do Campo,PT,61.2,overcast clouds,37.7167,-25.4333,Pestana Bahia Praia
161,Tecoanapa,MX,80.87,clear sky,16.5167,-98.75,Hotel Manglares
163,Chokwe,MZ,77.16,few clouds,-24.5333,32.9833,Complexo Sonho Real
164,Charters Towers,AU,75.15,broken clouds,-20.1,146.2667,Cattleman's Rest Motor Inn
165,Harper,LR,79.92,scattered clouds,4.375,-7.7169,Screensaver
166,Bontang,ID,75.9,overcast clouds,0.1333,117.5,KOPKAR Hotel Bintang Sintuk
170,Mulchen,CL,80.46,clear sky,-37.7167,-72.2333,Hotel Los Maitenes de Villalón
171,Monrovia,LR,78.57,scattered clouds,6.3005,-10.7969,Sunset Inn
172,Itapora,BR,78.57,broken clouds,-22.0799,-54.7874,Hotel Santa Fé
173,San Cristobal,VE,77.18,broken clouds,7.7669,-72.225,Posada Villaven C.A.
177,Mapiripan,CO,84.36,overcast clouds,2.8892,-72.1256,Monserrate
180,Valparaiso,CL,71.24,clear sky,-33.0393,-71.6273,Hotel Ultramar
182,Lukulu,ZM,64.6,broken clouds,-14.3707,23.242,Ruth Guest House
184,Bundibugyo,UG,74.93,overcast clouds,0.7414,30.0417,R.A. Kaliisa Accomodations
189,Jurado,CO,79.36,light rain,7.1053,-77.7641,
190,Katherine,AU,77.32,overcast clouds,-14.4667,132.2667,Pine Tree Motel
193,Rach Gia,VN,73.35,scattered clouds,10.0167,105.0833,Nhà Hàng Hòa Giang
194,Touros,BR,81.5,few clouds,-5.1989,-35.4608,INN NEW HORIZON
196,Necochea,AR,61.03,moderate rain,-38.5473,-58.7368,dyd -mar Hotel
197,Kawalu,ID,71.87,overcast clouds,-7.3817,108.2082,KOSAN UNGU UNSIK
200,Cockburn Town,TC,76.96,scattered clouds,21.4612,-71.1419,Osprey Beach Hotel
201,Alofi,NU,82.29,overcast clouds,-19.0595,-169.9187,Taloa Heights
203,Dingle,PH,74.34,overcast clouds,10.9995,122.6711,SEGAYA PROPERTY
205,Santa Ines,BR,74.93,overcast clouds,-3.6667,-45.38,Palace hotel
206,Road Town,VG,73.49,few clouds,18.4167,-64.6167,"ZINGARA 76ft Catamaran, full crew-all included"
207,Rantauprapat,ID,71.67,overcast clouds,2.1,99.8333,Permata Land Hotel & Resort
210,Alyangula,AU,80.47,light intensity shower rain,-13.8483,136.4192,Groote Eylandt Lodge
213,Mogadishu,SO,76.17,scattered clouds,2.0371,45.3438,Hotel Juba
222,Tsaratanana,MG,73.09,light rain,-16.7833,47.65,
225,Banda Aceh,ID,77.79,overcast clouds,5.5577,95.3222,Sulthan Hotel International
228,Namibe,AO,72.75,overcast clouds,-15.1961,12.1522,Hotel Chik Chik Namibe
229,Tonantins,BR,74.25,overcast clouds,-2.8731,-67.8022,Hotel Rei Davi
230,Conde,BR,80.06,few clouds,-7.2597,-34.9075,Pousada Beija Flor
231,Lompoc,US,71.22,clear sky,34.6391,-120.4579,"Holiday Inn Express Lompoc, an IHG Hotel"
234,Auki,SB,81.82,overcast clouds,-8.7676,160.7034,Auki Motel
236,Asosa,ET,64.15,scattered clouds,10.0667,34.5333,Blendana Hotel Assosa
238,Carnarvon,AU,77.07,broken clouds,-24.8667,113.6333,Hospitality Carnarvon
239,Lima,PE,76.39,clear sky,-12.0432,-77.0282,Gran Hotel Bolivar Lima
240,Domoni,KM,79.16,light rain,-12.2569,44.5319,Al Djadid
243,Miri,MY,73.54,scattered clouds,4.4148,114.0089,"Mega Hotel, Miri"
245,Otorohanga,NZ,83.57,overcast clouds,-38.1833,175.2,Otorohanga Kiwi Holiday Park
248,Maningrida,AU,79.14,overcast clouds,-12.0667,134.2667,Dhukurrdji Lodge
253,Manuk Mangkaw,PH,80.22,overcast clouds,4.8,119.85,
254,Grand Baie,MU,79.45,overcast clouds,-20.0182,57.5802,Trou aux Biches Beachcomber Golf Resort & Spa
255,Santa Cruz,BO,82.45,broken clouds,-17.8,-63.1667,Aviador Hotel Boutique
256,Aripuana,BR,74.93,overcast clouds,-9.1667,-60.6333,
257,Mabaruma,GY,73.71,clear sky,8.2,-59.7833,Monty Brooms Guest House
258,Caapucu,PY,74.17,moderate rain,-26.2167,-57.2,Porton Estancia Santa Clara
259,Salalah,OM,71.69,few clouds,17.0151,54.0924,"HAMDAN PLAZA HOTEL SALALAH, an HTG Hotel"
260,Tarata,BO,65.62,light rain,-17.6167,-66.0167,Hacienda castillo
261,Maun,BW,69.8,light rain,-19.9833,23.4167,Enviro Villa
262,Kibala,TD,75.45,few clouds,9.1104,18.3463,hotel safari
263,Young,UY,78.22,overcast clouds,-32.6833,-57.6333,Posada Gira el Sol
268,Morondava,MG,81.19,broken clouds,-20.2833,44.2833,La Case Bambou
270,Muana,BR,74.71,moderate rain,-1.5283,-49.2167,Pousada Bella do Marajó
273,Cabo San Lucas,MX,72.7,clear sky,22.8909,-109.9124,Hotel Tesoro Los Cabos
275,Pochutla,MX,87.82,few clouds,15.7432,-96.4661,Hotel Posada San Jose
276,Cairns,AU,80.06,broken clouds,-16.9167,145.7667,Mantra Trilogy Cairns
278,Capitao Poco,BR,73.65,moderate rain,-1.7464,-47.0594,Hotel New Tokyo
283,Saint-Joseph,RE,79.16,light rain,-21.3667,55.6167,"""Plantation Bed and Breakfast"
287,San Jose,US,68.31,clear sky,37.3394,-121.895,The Westin San Jose
290,San,ML,74.7,clear sky,13.3034,-4.8956,Hôtel Teriya
291,Hambantota,LK,73.0,few clouds,6.1241,81.1185,Bungalow 63
292,Geraldton,AU,72.01,clear sky,-28.7667,114.6,Broadwater Mariner Resort
295,Chiredzi,ZW,72.59,scattered clouds,-21.05,31.6667,Clevers Hotel Chiredzi
296,Port Lincoln,AU,66.83,overcast clouds,-34.7333,135.8667,Port Lincoln Hotel
298,Fort Pierce,US,79.09,clear sky,27.4467,-80.3256,Hutchinson Island Plaza Hotel & Suites
299,Constitucion,CL,64.24,few clouds,-35.3333,-72.4167,Hotel Boutique Las Azucenas
302,Butterworth,MY,79.0,scattered clouds,5.3991,100.3638,Cititel Penang
303,Casablanca,MA,60.33,overcast clouds,33.5928,-7.6192,فندق البيت المغربي كازبلانكا
304,Los Llanos De Aridane,ES,60.55,clear sky,28.6585,-17.9182,Valle Aridane
305,Riyadh,SA,66.34,broken clouds,24.6877,46.7219,"InterContinental Riyadh, an IHG Hotel"
306,Nigel,ZA,63.39,moderate rain,-26.4314,28.4771,Nambiti Lodge
309,San Carlos,VE,80.64,broken clouds,9.6612,-68.5827,Hotel Paternopoli
312,Thinadhoo,MV,81.43,overcast clouds,0.5333,72.9333,
314,Tambura,SS,74.07,overcast clouds,5.6,27.4667,Rikito Lodge
315,Prachuap Khiri Khan,TH,75.69,scattered clouds,12.2167,99.75,ผกากรองรีสอร์ท
318,Bumbuna,SL,71.65,clear sky,9.05,-11.7333,
319,Ariquemes,BR,74.03,heavy intensity rain,-9.9133,-63.0408,Hotel Sol Nascente - Ariquemes - RO
321,Celestun,MX,76.39,clear sky,20.8667,-90.4,Posada Lilia
324,Oussouye,SN,77.18,clear sky,12.485,-16.5469,Auberge du Routard
325,Havelock,US,73.63,broken clouds,34.8791,-76.9013,Sherwood Motel
327,Port Macquarie,AU,67.96,overcast clouds,-31.4333,152.9167,Rydges Port Macquarie
329,Sijunjung,ID,70.29,moderate rain,-0.6876,100.9537,Hotel Bukik Gadang
331,Vilhena,BR,71.82,broken clouds,-12.7406,-60.1458,Hotel Mirage
332,Mayumba,GA,76.42,broken clouds,-3.432,10.6554,LIKWALE LODGE
333,Ancud,CL,64.22,broken clouds,-41.8697,-73.8203,Hotel Arena Gruesa
334,Praia,CV,72.14,clear sky,14.9215,-23.5087,LT Aparthotel
337,Lakatoro,VU,80.42,overcast clouds,-16.0999,167.4164,Lakatoro Palm Lodge
338,Ialibu,PG,64.27,overcast clouds,-6.2821,143.9935,Eastwood Guesthouse
342,Kavieng,PG,83.19,overcast clouds,-2.5744,150.7967,Nusa Island Retreat
345,Soyo,AO,77.92,broken clouds,-6.1349,12.3689,Hotel Mpampa
346,Pisco,PE,73.45,clear sky,-13.7,-76.2167,Hotel San Isidro Oficial
347,Roebourne,AU,85.95,overcast clouds,-20.7833,117.1333,Latitude20 Roebourne Village
349,Kununurra,AU,78.78,broken clouds,-15.7667,128.7333,Hotel Kununurra
351,Kokoda,PG,86.32,overcast clouds,-8.8785,147.7407,Daito Guest House
352,Ewo,CG,74.35,overcast clouds,-0.8725,14.8206,Residence Elonda Ewo
354,Kabare,CD,60.33,light rain,-2.4683,28.8242,Hôtel Panorama
355,Lichinga,MZ,64.49,broken clouds,-13.3128,35.2406,Residencial Bendiak
357,San Ramon,US,66.42,clear sky,37.7799,-121.978,San Ramon Marriott
359,Portachuelo,BO,83.88,broken clouds,-17.35,-63.4,MOTEL
360,Kimbe,PG,83.44,light rain,-5.5502,150.1429,Kimbe Bay Hotel
361,Pangkalanbuun,ID,73.38,overcast clouds,-2.6833,111.6167,Grand Kecubung Hotel
363,Palu,ID,75.88,overcast clouds,-0.8917,119.8707,Hotel Santika Palu
365,Sarangani,PH,80.67,overcast clouds,5.4033,125.4636,Ballistic Islet
366,Quatre Cocos,MU,79.09,light rain,-20.2078,57.7625,Sunrise Attitude Hotel
369,San Carlos De Bariloche,AR,65.95,scattered clouds,-41.1456,-71.3082,Hotel Patagonia
372,Manadhoo,MV,81.46,broken clouds,5.7667,73.3833,Bon Abri maldives
373,Woodland,US,68.05,clear sky,38.6785,-121.7733,Hampton Inn & Suites Woodland-Sacramento Area
377,Bambari,CF,77.88,broken clouds,5.768,20.6757,Hotel-Restaurant BIBICH
379,Innisfail,AU,78.46,light rain,-17.5333,146.0333,Moondarra Motel
380,Antofagasta,CL,67.28,clear sky,-23.65,-70.4,"Holiday Inn Express Antofagasta, an IHG Hotel"
382,Pandamatenga,BW,67.96,overcast clouds,-18.5278,25.627,Wildtrack Safaris Eco Lodge
386,Comodoro Rivadavia,AR,60.66,few clouds,-45.8667,-67.5,Austral Hotel
388,Hervey Bay,AU,77.04,broken clouds,-25.2986,152.8535,Shelly Bay Resort
389,Grand Gaube,MU,79.38,overcast clouds,-20.0064,57.6608,Veranda Paul et Virginie Hotel & Spa
390,Moron,AR,77.97,overcast clouds,-34.6534,-58.6198,Hotel Morón
391,Sao Filipe,CV,73.78,clear sky,14.8961,-24.4956,Hotel Xaguate
392,San Pedro,PH,76.35,broken clouds,14.35,121.0167,Villa Veronica Resort Private Pool
393,Padang,ID,73.45,overcast clouds,-0.9492,100.3543,Mercure Padang
394,Tahoua,NE,62.15,clear sky,14.8888,5.2692,Bungalows Guesthouse
395,Varzelandia,BR,70.38,light rain,-15.7014,-44.0275,Pousada Portal da Cidade
396,Guerrero Negro,MX,66.88,clear sky,27.9769,-114.0611,"Casa Laguna, Bed & Breakfast"
397,Ngunguru,NZ,75.16,scattered clouds,-35.6167,174.5,Pacific Rendezvous Motel Resort
399,Bubaque,GW,78.06,clear sky,11.2833,-15.8333,"Casa Dora, Bubaque"
401,Ambon,ID,75.34,few clouds,-3.6954,128.1814,Swiss-Belhotel Ambon
404,Dakoro,NE,60.67,clear sky,14.5106,6.765,Shagon mai liverpool
405,Sungaipenuh,ID,63.88,overcast clouds,-2.0833,101.3833,penginapan citra alam
407,Bambous Virieux,MU,79.21,light rain,-20.3428,57.7575,Casa Tia Villa
408,Taoudenni,ML,67.53,broken clouds,22.6783,-3.9836,
411,Saint-Pierre,RE,80.24,light intensity drizzle rain,-21.3393,55.4781,Lindsey Hôtel
413,Okato,NZ,68.92,light rain,-39.2,173.8833,Goodin Country Garden
414,Pontes E Lacerda,BR,75.16,moderate rain,-15.2261,-59.3353,Hotel Bressan
415,Guanica,PR,78.15,few clouds,17.9716,-66.908,Copamarina Beach Resort & Spa
416,High Rock,BS,77.02,clear sky,26.6208,-78.2833,Hideaway Bahamas Beach Club
417,Luanda,AO,77.0,few clouds,-8.8368,13.2343,Hotel Fórum
418,Coruripe,BR,79.52,clear sky,-10.1256,-36.1756,Pousada e Hotel Litoral Sul
419,De Aar,ZA,62.42,clear sky,-30.6497,24.0123,Nyibiba Guesthouse
420,Eyl,SO,70.27,clear sky,7.9803,49.8164,Amiin Hotel
422,Malakal,SS,76.71,scattered clouds,9.5334,31.6605,Nile Palace Hotel
428,Kudahuvadhoo,MV,81.25,broken clouds,2.6708,72.8944,Niyama Private Islands Maldives
429,Santa Fe,AR,81.01,overcast clouds,-31.6333,-60.7,Conquistador Hotel
430,Buin,CL,84.52,clear sky,-33.7333,-70.75,Paihuen
433,Manjeshwar,IN,70.75,broken clouds,12.7194,74.8861,Mangalore Beach House - EWA Ikigai
436,Hirara,JP,61.07,broken clouds,24.8,125.2833,Hotel Atoll Emerald Miyakojima
441,Santa Isabel Do Rio Negro,BR,75.2,broken clouds,-0.4139,-65.0192,Hotel GSA
442,Codrington,AU,66.02,overcast clouds,-38.2667,141.9667,Codrington Gardens Bed And Breakfast
445,Atambua,ID,75.72,overcast clouds,-9.1061,124.8925,Pastori 1 Jemaat Polycarpus
449,Atar,MR,71.8,scattered clouds,20.5169,-13.0499,Oumou Elghoura
450,Trujillo Alto,PR,73.26,thunderstorm,18.3547,-66.0074,Tropical Forest
452,Yulara,AU,66.04,clear sky,-25.2406,130.9889,Desert Gardens Hotel - Ayers Rock Resort
457,Port Augusta,AU,77.7,broken clouds,-32.5,137.7667,Majestic Oasis Apartments
459,Dwarka,IN,68.9,clear sky,22.2394,68.9678,Hotel Narayan Avezika Comfort
462,Upata,VE,81.19,overcast clouds,8.0086,-62.3989,Posada Villa Nela
463,Palau,PW,76.96,broken clouds,7.503,134.621,PALAU SUNRISE SEA VIEW LANDISON RETREAT
464,Mazabuka,ZM,64.92,light rain,-15.856,27.748,kachali king traders
467,Jutai,BR,72.41,overcast clouds,-5.1833,-68.9,
468,Chauk,MM,63.64,clear sky,20.8833,94.8167,Bo Khin Guest House
470,Lodja,CD,68.88,overcast clouds,-3.4833,23.4333,
472,Minuri,PH,69.87,overcast clouds,16.535,121.8574,
473,Saldanha,ZA,60.85,clear sky,-33.0117,17.9442,Blue Bay Lodge
474,Cam Ranh,VN,73.36,scattered clouds,11.9214,109.1591,OYO 598 Peony Hotel
475,Durham,US,69.3,overcast clouds,36.0335,-78.8664,Hampton Inn & Suites Durham/North I-85
476,Balud,PH,78.76,overcast clouds,10.1476,123.6953,Pulchra Resort
477,Calvinia,ZA,70.68,clear sky,-31.4707,19.776,Die Lemoenhuis
481,Mandiana,GN,75.67,clear sky,10.6333,-8.6833,Motels rouzo
486,Daru,PG,79.65,overcast clouds,-9.0763,143.2092,Daru Lodge
487,Ternate,ID,80.49,overcast clouds,0.8,127.4,Sahid Bela Ternate Hotel
489,Lucapa,AO,62.2,broken clouds,-8.4192,20.7447,Residência Ulisses Dos Santos
491,Kui Buri,TH,79.99,scattered clouds,12.0828,99.8543,Rista House & Resort
492,Carutapera,BR,76.21,overcast clouds,-1.195,-46.02,Lidera
493,Kalmunai,LK,73.2,scattered clouds,7.4167,81.8167,VS Villa
497,Cayenne,GF,79.09,clear sky,4.9333,-52.3333,Hôtel Le Dronmi
498,Asilah,MA,62.46,overcast clouds,35.465,-6.0348,Hotel Zelis
499,Sao Sebastiao,BR,76.48,overcast clouds,-23.76,-45.4097,Hotel Recanto dos Pássaros
500,Vayalar,IN,69.78,broken clouds,9.7,76.3333,Vasundhara Sarovar Premiere
501,Waingapu,ID,79.07,scattered clouds,-9.6567,120.2641,Pondok Wisata Elim
506,Puerto Del Rosario,ES,67.68,clear sky,28.5004,-13.8627,Hotel JM Puerto del Rosario
507,Lahaina,US,85.24,clear sky,20.8783,-156.6825,Lahaina Shores Beach Resort
511,Port Keats,AU,79.61,overcast clouds,-14.25,129.55,TDC Village (Hundred Man Camp)
513,Pacifica,US,67.73,clear sky,37.6138,-122.4869,"Pacifica Lighthouse, Trademark Collection by Wyndham"
516,Paita,PE,77.56,few clouds,-5.0892,-81.1144,Hotel Náutico de Paita
521,Taganak,PH,75.34,light rain,6.0833,118.3,Taganak
524,Ipojuca,BR,82.31,scattered clouds,-8.3989,-35.0639,Temporada Condomínio Reserva Ipojuca
525,Airai,TL,64.67,overcast clouds,-8.9266,125.4092,
528,Nakhon Nayok,TH,79.02,scattered clouds,14.1667,101.1,ห้างหุ้นส่วนจำกัด เอสพีรีสอร์ท
530,Keti Bandar,PK,68.7,clear sky,24.1447,67.4497,Haji laloo memon house
531,Nortelandia,BR,76.28,overcast clouds,-14.4547,-56.8028,Hotel Karysmã
532,Gizo,SB,83.41,moderate rain,-8.103,156.8419,Imagination Island
535,Barabai,ID,73.76,overcast clouds,-2.5833,115.3833,HOTEL BOURAQ INDAH PERMAI
541,Kannur,IN,67.53,broken clouds,11.8675,75.3576,Asokam Beach Resort and Ayurveda Chikitsa Kendram
542,Plettenberg Bay,ZA,64.69,overcast clouds,-34.0527,23.3716,Thanda Vista B&B
545,Waiuku,NZ,81.99,broken clouds,-37.25,174.75,Waiuku Lodge Motel
548,Inyonga,TZ,63.64,light rain,-6.7167,32.0667,Eden Rock Lodge
552,Ahuimanu,US,80.37,clear sky,21.4447,-157.8378,Paradise Bay Resort
554,The Valley,AI,73.26,few clouds,18.217,-63.0578,CeBlue Villas & Beach Resort
555,Ugoofaaru,MV,81.09,clear sky,5.6667,73.0,Ungoofaaru Inn
561,Wanganui,NZ,63.73,light rain,-39.9333,175.05,Aotea Motor Lodge
562,Camacari,BR,82.17,scattered clouds,-12.6975,-38.3242,Hotel Cambuci
564,Mareeba,AU,75.43,overcast clouds,-17.0,145.4333,Trinity Plains Tourist Park
565,Salcedo,PH,74.25,overcast clouds,12.8105,121.4674,Yamaji Freeman Farm
566,Olinda,BR,82.13,scattered clouds,-8.0089,-34.8553,Hotel Albergue de Olinda
569,San Felipe,VE,71.58,clear sky,10.3399,-68.7425,Posada Llovizna Rodríguez
570,Honiara,SB,84.2,overcast clouds,-9.4333,159.95,Heritage Park Hotel
571,Bukoba,TZ,67.93,overcast clouds,-1.3317,31.8122,Elct Bukoba Hotel and Tours
572,Cacoal,BR,75.61,moderate rain,-11.4386,-61.4472,Hotel BR 364
573,Dicabisagan,PH,73.99,overcast clouds,17.0818,122.4157,Nancy Montanes Bernardo
574,Sola,VU,81.7,light rain,-13.8833,167.55,Leumerus Bungalows
575,Azare,NG,62.55,clear sky,11.6765,10.1948,Mallam Ayuba Compound
579,Pacific Grove,US,70.57,clear sky,36.6177,-121.9166,Lovers Point Inn
580,Waiouru,NZ,62.02,overcast clouds,-39.4833,175.6667,Tawhiri
581,San Lorenzo,PY,74.59,thunderstorm with light rain,-25.3333,-57.5333,Hotel del Sur
582,Guanhaes,BR,68.2,overcast clouds,-18.775,-42.9325,CARAVELLE HOTEL Guanhães - MG
584,Samarai,PG,83.97,overcast clouds,-10.6167,150.6667,Nuli Sapi
585,Tabuk,PH,68.13,broken clouds,17.4189,121.4443,Golden Berries Hotel and Convention
586,Kaniama,CD,62.15,overcast clouds,-7.5667,24.1833,
587,Da Nang,VN,67.98,broken clouds,16.0678,108.2208,Sun River Hotel
588,Itarema,BR,79.65,broken clouds,-2.9248,-39.9167,"Sea Lounge! Bar, Club & Restaurant"
591,Kandete,TZ,60.19,overcast clouds,-9.15,33.8,
592,Bitung,ID,72.45,overcast clouds,1.4451,125.1824,K2 Lembeh
593,Simbahan,PH,79.97,overcast clouds,6.3032,120.5836,
594,Alvaraes,BR,76.87,overcast clouds,-3.2208,-64.8042,Av. Castelo Branco. Ginásio Ermelino vieira.
595,Maturin,VE,78.28,clear sky,9.75,-63.1767,Hotel Residencial La Pichincha
596,Zaraza,VE,78.4,broken clouds,9.3503,-65.3245,Hotel Zaraza
597,Ulladulla,AU,67.1,overcast clouds,-35.35,150.4667,Sandpiper Motel
598,Sambava,MG,76.62,light rain,-14.2667,50.1667,Melrose
599,Impfondo,CG,72.64,overcast clouds,1.6381,18.0667,Auberge La Place de Jules
601,Gamba,GA,75.76,broken clouds,-2.65,10.0,
603,Katsina,NG,61.07,clear sky,12.9894,7.6006,Katsina Motel
606,Rio Grande,BR,76.95,scattered clouds,-32.035,-52.0986,Hotel Atlântico Rio Grande
607,Lai,TD,72.88,scattered clouds,9.3952,16.2989,
608,Byron Bay,AU,75.06,overcast clouds,-28.65,153.6167,Backpackers Inn
616,Tiarei,PF,82.42,light rain,-17.5333,-149.3333,Le Rocher de Tahiti
619,Lagos,NG,82.72,clear sky,6.5833,3.75,
620,Bagojo,MX,71.51,clear sky,25.8667,-109.1167,
622,Kilindoni,TZ,79.36,moderate rain,-7.9139,39.6668,Bustani B&B
623,Port Antonio,JM,82.31,scattered clouds,18.18,-76.4612,The Trident Hotel
629,Oranjestad,AW,82.35,scattered clouds,12.524,-70.027,Divi Village Golf & Beach Resort
633,Knysna,ZA,64.78,overcast clouds,-34.0363,23.0471,Protea Hotel by Marriott Knysna Quays
634,Diu,IN,61.7,few clouds,20.7141,70.9822,Hotel Relax Inn
635,Kikwit,CD,69.94,overcast clouds,-5.041,18.8162,HOTEL PLACE YALABA
636,Laguna,US,67.66,clear sky,38.421,-121.4238,"Holiday Inn Express & Suites Elk Grove Central - Hwy 99, an IHG Hotel"
637,Kampot,KH,78.85,scattered clouds,10.6167,104.1833,Two Moons Hotel
638,Sur,OM,69.51,clear sky,22.5667,59.5289,Sur Plaza Hotel
641,Isangel,VU,78.91,moderate rain,-19.55,169.2667,Tanna Lodge
642,Acarau,BR,79.61,broken clouds,-2.8856,-40.12,castelo pizzaria
644,Kaduna,NG,66.25,clear sky,10.5222,7.4383,HAMDALA HOTEL
645,Coffs Harbour,AU,66.47,light rain,-30.3,153.1333,Aquajet Motel
646,Pedernales,DO,77.58,clear sky,18.0384,-71.744,Hotel Costa Marina
648,Umm Lajj,SA,60.96,clear sky,25.0213,37.2685,Moon light Furnished Units
649,Labuhan,ID,78.37,broken clouds,-6.8844,112.2051,DoubleFAG
650,Mindelo,CV,71.15,few clouds,16.8901,-24.9804,Hotel Gaudi
651,Viedma,AR,65.41,overcast clouds,-40.8135,-62.9967,Hotel Cristal
653,Moussoro,TD,63.86,clear sky,13.6408,16.4901,Hôtel Salama
655,Maumere,ID,80.11,overcast clouds,-8.6199,122.2111,Sylvia Hotel
657,Sao Felix Do Xingu,BR,75.18,moderate rain,-6.6447,-51.995,Rio Xingu Camping
658,Sabya,SA,78.42,clear sky,17.1495,42.6254,Aseel Hotel Apartment
659,Sao Gabriel Da Cachoeira,BR,75.22,overcast clouds,-0.1303,-67.0892,Alarne - Área De Lazer Do Alto Rio Negro
662,Madimba,TZ,77.27,moderate rain,-10.4,40.3333,
663,Anloga,GH,82.62,clear sky,5.7947,0.8973,Pin Drop Hotel
664,Sungairaya,ID,75.88,overcast clouds,0.7,108.9,Rumah Kuku Moimoi Shelly
666,Santiago Del Estero,AR,76.26,overcast clouds,-27.7951,-64.2615,Apartamentos Castelli 90
669,Lavumisa,SZ,70.92,light rain,-27.31,31.892,ROADSIDE B&B
670,Gunjur,GM,73.47,clear sky,13.2019,-16.7339,Dalaba Eco-Lodge Gambia
673,Tual,ID,83.79,overcast clouds,-5.6667,132.75,Grand Vilia Hotel
674,Nova Olimpia,BR,75.96,broken clouds,-14.7972,-57.2881,Motel glamour
676,Calabozo,VE,88.83,overcast clouds,8.9242,-67.4293,Hotel Giardini
678,Chicama,PE,70.34,broken clouds,-7.8447,-79.1469,Balihai Bungalows
681,Poum,NC,81.48,overcast clouds,-20.2333,164.0167,Gîte kajeon
682,Clearlake,US,66.25,broken clouds,38.9582,-122.6264,Americas Best Value Inn & Suites Clearlake Wine Country
683,Amapa,BR,72.32,overcast clouds,1.0,-52.0,
686,Filingue,NE,66.07,clear sky,14.3521,3.3168,
687,Arteaga,MX,75.99,few clouds,18.4667,-102.4167,
